{
  "clinics": [
    {
      "name": "Swedish Dental Clinic Dubai Marina",
      "slug": "swedish-dental-clinic-dubai-marina",
      "address": "Al Seba St - opposite Choithrams supermarket - Marsa Dubai - Dubai Marina - Dubai",
      "area": "Dubai Marina",
      "phone": "+971 4 456 3366",
      "website": "https://swedishdentaldubai.com/",
      "rating": 4.8,
      "reviewCount": 245,
      "services": ["General Dentistry", "Invisalign", "Dental Implants", "Teeth Whitening", "Veneers", "Root Canal"],
      "hours": "Mon-Sat: 9:00 AM - 8:00 PM",
      "description": "Award-winning Platinum Invisalign Provider offering comprehensive dental care in Dubai Marina with Swedish standards of excellence.",
      "lat": 25.0693281,
      "lng": 55.1298297
    },
    {
      "name": "Dr. Joy Dental Clinic, Dubai Marina",
      "slug": "dr-joy-dental-clinic-dubai-marina",
      "address": "Zen Tower - Ground Floor, Shop No 3, Dubai Marina",
      "area": "Dubai Marina",
      "phone": "+971 800 37569",
      "website": "https://www.drjoydentalclinic.com/our-clinics/dubai-marina-dental-clinic/",
      "rating": 4.9,
      "reviewCount": 458,
      "services": ["General Dentistry", "Cosmetic Dentistry", "Orthodontics", "Pediatric Dentistry", "Dental Implants"],
      "hours": "Mon-Sat: 9:00 AM - 8:00 PM",
      "description": "Premium dental clinic in Dubai Marina providing comprehensive dental care with state-of-the-art facilities.",
      "lat": 25.0677366,
      "lng": 55.1309461
    },
    {
      "name": "Dental Studio - JBR The Walk",
      "slug": "dental-studio-jbr-the-walk",
      "address": "Unit 8, Al Fattan Marine Towers - The Walk, JBR",
      "area": "JBR",
      "phone": "+971 4 399 8440",
      "website": "https://www.thedentalstudio.ae/jbr-the-walk-clinic/",
      "rating": 4.8,
      "reviewCount": 164,
      "services": ["General Dentistry", "Cosmetic Dentistry", "Teeth Whitening", "Veneers", "Dental Crowns"],
      "hours": "Mon-Sat: 9:00 AM - 7:00 PM",
      "description": "Award-winning dental clinic on JBR The Walk offering premium dental treatments in a beachside location.",
      "lat": 25.0794585,
      "lng": 55.1360817
    },
    {
      "name": "Queens Elite Medical",
      "slug": "queens-elite-medical",
      "address": "King Salman Bin Abdulaziz Al Saud St, Dubai Marina",
      "area": "Dubai Marina",
      "phone": "+971 4 399 0402",
      "website": "https://queenselitemedical.com/",
      "rating": 4.9,
      "reviewCount": 476,
      "services": ["General Dentistry", "Dental Implants", "Cosmetic Dentistry", "Orthodontics", "Teeth Whitening"],
      "hours": "Mon-Sat: 9:00 AM - 10:00 PM",
      "description": "Comprehensive medical and dental center in Dubai Marina offering elite healthcare services.",
      "lat": 25.0828714,
      "lng": 55.1425273
    },
    {
      "name": "Polar Bear General Dental Clinic - JBR",
      "slug": "polar-bear-dental-clinic-jbr",
      "address": "Plaza Level, Rimal 2 - P14, JBR",
      "area": "JBR",
      "phone": "+971 52 148 9487",
      "website": "https://pbdc.ae/",
      "rating": 4.7,
      "reviewCount": 149,
      "services": ["General Dentistry", "Teeth Cleaning", "Dental Fillings", "Root Canal", "Dental Crowns"],
      "hours": "Mon-Sat: 9:00 AM - 8:00 PM",
      "description": "Family-friendly dental clinic in JBR providing quality dental care for all ages.",
      "lat": 25.0772796,
      "lng": 55.1343841
    },
    {
      "name": "Marina Medical Center Dubai Marina Clinics",
      "slug": "marina-medical-center-dubai-marina",
      "address": "Botanica Tower - King Salman Bin Abdulaziz Al Saud St, Dubai Marina",
      "area": "Dubai Marina",
      "phone": "+971 4 399 9939",
      "website": "http://mmcdubai.ae/",
      "rating": 4.8,
      "reviewCount": 1118,
      "services": ["General Dentistry", "Dental Implants", "Orthodontics", "Cosmetic Dentistry", "Pediatric Dentistry"],
      "hours": "Mon-Sat: 9:00 AM - 9:00 PM",
      "description": "Multi-specialty medical center with comprehensive dental services in the heart of Dubai Marina.",
      "lat": 25.0850426,
      "lng": 55.1424596
    },
    {
      "name": "DentalZorg Dentistry Dutch Dental Clinic Dubai",
      "slug": "dentalzorg-dutch-dental-clinic",
      "address": "3806 Cluster M, JLT",
      "area": "JLT",
      "phone": "+971 4 570 8800",
      "website": "https://dentalzorg.com/",
      "rating": 4.8,
      "reviewCount": 186,
      "services": ["General Dentistry", "Root Canal", "Dental Implants", "Invisalign", "Teeth Whitening"],
      "hours": "Mon-Sat: 9:00 AM - 7:00 PM",
      "description": "Dutch-standard dental clinic offering pain-free dental treatments with European expertise.",
      "lat": 25.064192,
      "lng": 55.13805
    },
    {
      "name": "Marina Dental Center - BLOCK 18",
      "slug": "marina-dental-center-block-18",
      "address": "Block 18, JLT",
      "area": "JLT",
      "phone": "+971 4 369 3625",
      "website": "http://www.marinadentalclinics.com/",
      "rating": 4.6,
      "reviewCount": 130,
      "services": ["General Dentistry", "Dental Implants", "Orthodontics", "Teeth Cleaning", "Dental Crowns"],
      "hours": "Mon-Sat: 9:00 AM - 8:00 PM",
      "description": "Established dental clinic in JLT providing comprehensive dental services to the community.",
      "lat": 25.1026836,
      "lng": 55.1632826
    },
    {
      "name": "Pearl Dental Clinic - Business Bay",
      "slug": "pearl-dental-clinic-business-bay",
      "address": "The Citadel - Tower, Shop# 3, Ground floor, Business Bay",
      "area": "Business Bay",
      "phone": "+971 800 732757",
      "website": "https://www.pearldentalclinics.com/",
      "rating": 4.9,
      "reviewCount": 1588,
      "services": ["Dental Implants", "Invisalign", "Veneers", "Teeth Whitening", "Root Canal", "Cosmetic Dentistry"],
      "hours": "Mon-Sat: 9:00 AM - 7:00 PM",
      "description": "Leading dental clinic in Business Bay specializing in implants and cosmetic dentistry.",
      "lat": 25.1836987,
      "lng": 55.2610056
    },
    {
      "name": "Pearl Dental Implants and Aligners Centre",
      "slug": "pearl-dental-implants-aligners-centre",
      "address": "The Citadel Tower, Shop# 4 - Ground Floor, Business Bay",
      "area": "Business Bay",
      "phone": "+971 54 475 2767",
      "website": "https://www.pearldentalclinics.com/",
      "rating": 5.0,
      "reviewCount": 707,
      "services": ["Dental Implants", "Clear Aligners", "Full Mouth Rehabilitation", "Cosmetic Dentistry"],
      "hours": "Mon-Sat: 9:00 AM - 7:00 PM",
      "description": "Specialized center for dental implants and aligners with expert dentists and natural-looking results.",
      "lat": 25.1887392,
      "lng": 55.2670874
    },
    {
      "name": "Precision Dental Clinic - Dubai",
      "slug": "precision-dental-clinic-dubai",
      "address": "Aspin Commercial Tower - 2301 - 106 Sheikh Zayed Rd, near Shangri-La Hotel",
      "area": "Downtown Dubai",
      "phone": "+971 4 275 6731",
      "website": "http://www.precisiondental.ae/",
      "rating": 4.9,
      "reviewCount": 546,
      "services": ["General Dentistry", "Dental Implants", "Orthodontics", "Cosmetic Dentistry", "Teeth Whitening"],
      "hours": "Mon-Sat: 9:00 AM - 6:00 PM",
      "description": "Precision-focused dental clinic near Downtown Dubai offering meticulous dental care.",
      "lat": 25.2089625,
      "lng": 55.2724984
    },
    {
      "name": "Crossroads Dental Clinic - Sheikh Zayed Road",
      "slug": "crossroads-dental-clinic-szr",
      "address": "Office #803, 8th Floor, The Tower Plaza Hotel Dubai, 56 Sheikh Zayed Road",
      "area": "Downtown Dubai",
      "phone": "+971 4 343 5424",
      "website": "https://crossroadsdentalclinic.com/",
      "rating": 4.9,
      "reviewCount": 572,
      "services": ["General Dentistry", "Cosmetic Dentistry", "Dental Implants", "Root Canal", "Orthodontics"],
      "hours": "Mon-Sat: 9:00 AM - 7:00 PM",
      "description": "Conveniently located dental clinic on Sheikh Zayed Road near Emirates Towers.",
      "lat": 25.2176326,
      "lng": 55.2786
    },
    {
      "name": "Ora Dental Clinic",
      "slug": "ora-dental-clinic",
      "address": "Office Side - Room, Fairmont Tower office entrance - 2104",
      "area": "Downtown Dubai",
      "phone": "+971 4 547 2001",
      "website": "http://oraclinic.ae/",
      "rating": 5.0,
      "reviewCount": 134,
      "services": ["General Dentistry", "Cosmetic Dentistry", "Dental Implants", "Veneers"],
      "hours": "Mon-Sat: 9:00 AM - 6:00 PM",
      "description": "Boutique dental clinic in Fairmont Tower offering personalized dental care.",
      "lat": 25.2264383,
      "lng": 55.2841694
    },
    {
      "name": "Trio Dental Center",
      "slug": "trio-dental-center",
      "address": "Blue Bay Tower - 617, Business Bay",
      "area": "Business Bay",
      "phone": "+971 4 438 3000",
      "website": "http://www.triodentalcenter.com/",
      "rating": 4.9,
      "reviewCount": 304,
      "services": ["General Dentistry", "Cosmetic Dentistry", "Orthodontics", "Dental Implants", "Pediatric Dentistry"],
      "hours": "Mon-Sat: 9:00 AM - 8:00 PM",
      "description": "Modern dental center in Business Bay with a team of specialized dentists.",
      "lat": 25.1876338,
      "lng": 55.2705553
    },
    {
      "name": "Downtown Clinic",
      "slug": "downtown-clinic",
      "address": "The Old Town Island - 432 Al Saaha B, Downtown Dubai",
      "area": "Downtown Dubai",
      "phone": "+971 4 276 5000",
      "website": "https://www.downtownclinic.ae/",
      "rating": 5.0,
      "reviewCount": 26,
      "services": ["General Dentistry", "Cosmetic Dentistry", "Teeth Whitening", "Dental Check-ups"],
      "hours": "Mon-Sat: 8:00 AM - 6:00 PM",
      "description": "Premium dental clinic in Old Town Downtown Dubai offering quality dental services.",
      "lat": 25.1928604,
      "lng": 55.2778299
    },
    {
      "name": "Polar Bear General Dental Clinic - Business Bay",
      "slug": "polar-bear-dental-clinic-business-bay",
      "address": "10 Plaza 01, Business Bay",
      "area": "Business Bay",
      "phone": "+971 4 570 0155",
      "website": "https://pbdc.ae/",
      "rating": 4.9,
      "reviewCount": 92,
      "services": ["General Dentistry", "Teeth Cleaning", "Dental Fillings", "Root Canal", "Dental Crowns"],
      "hours": "Mon-Sat: 9:00 AM - 9:00 PM",
      "description": "Family-friendly dental clinic in Business Bay with extended hours for convenience.",
      "lat": 25.1852088,
      "lng": 55.2806802
    },
    {
      "name": "Dental Hub Clinic",
      "slug": "dental-hub-clinic",
      "address": "Business Point Building - 201, Dusseldorf, Al Barsha",
      "area": "Al Barsha",
      "phone": "+971 56 642 5251",
      "website": "https://dentalhubclinic.ae/",
      "rating": 4.9,
      "reviewCount": 429,
      "services": ["General Dentistry", "Dental Implants", "Invisalign", "Veneers", "Teeth Whitening"],
      "hours": "Mon-Sat: 9:00 AM - 9:00 PM",
      "description": "Modern dental clinic in Al Barsha offering comprehensive dental care with latest technology.",
      "lat": 25.1145788,
      "lng": 55.2049949
    },
    {
      "name": "Shine & Smile Dental Clinic",
      "slug": "shine-smile-dental-clinic",
      "address": "708, Elite Business Centre Building, Al Barsha",
      "area": "Al Barsha",
      "phone": "+971 4 224 2100",
      "website": "https://www.shineandsmile.ae/",
      "rating": 4.8,
      "reviewCount": 424,
      "services": ["General Dentistry", "Cosmetic Dentistry", "Orthodontics", "Teeth Whitening", "Dental Implants"],
      "hours": "Mon-Sat: 9:00 AM - 8:00 PM",
      "description": "Patient-focused dental clinic in Al Barsha dedicated to creating beautiful smiles.",
      "lat": 25.1163879,
      "lng": 55.2060633
    },
    {
      "name": "Healthpoint For General Dental Clinic",
      "slug": "healthpoint-dental-clinic",
      "address": "Al Bedaia Building - Office 603 Street 3, Al Barsha",
      "area": "Al Barsha",
      "phone": "+971 58 588 6915",
      "website": null,
      "rating": 4.7,
      "reviewCount": 332,
      "services": ["General Dentistry", "Dental Fillings", "Root Canal", "Teeth Cleaning", "Extractions"],
      "hours": "Mon-Sat: 9:00 AM - 9:00 PM",
      "description": "Accessible dental clinic in Al Barsha providing quality general dental services.",
      "lat": 25.113632,
      "lng": 55.204475
    },
    {
      "name": "Esthetix Dental Center",
      "slug": "esthetix-dental-center",
      "address": "Dussledorf Business Point 305 - 1 Al Barsha Rd, Al Barsha",
      "area": "Al Barsha",
      "phone": "+971 4 529 4421",
      "website": "https://esthetixdentalcenters.com/",
      "rating": 4.9,
      "reviewCount": 459,
      "services": ["Cosmetic Dentistry", "Veneers", "Teeth Whitening", "Dental Implants", "Smile Makeover"],
      "hours": "Mon-Sat: 9:00 AM - 10:00 PM",
      "description": "Aesthetic-focused dental center specializing in smile transformations and cosmetic procedures.",
      "lat": 25.1147743,
      "lng": 55.2048202
    },
    {
      "name": "Klinika Dental Clinic LLC",
      "slug": "klinika-dental-clinic",
      "address": "The Elite - Suite 310-311, Al Barsha",
      "area": "Al Barsha",
      "phone": "+971 4 347 4339",
      "website": "https://klinikadentalclinic.ae/",
      "rating": 4.9,
      "reviewCount": 1034,
      "services": ["General Dentistry", "Orthodontics", "Dental Implants", "Cosmetic Dentistry", "Pediatric Dentistry"],
      "hours": "Mon-Sat: 9:00 AM - 9:00 PM",
      "description": "Popular dental clinic in Al Barsha known for excellent patient care and comprehensive services.",
      "lat": 25.1164181,
      "lng": 55.2061498
    },
    {
      "name": "Aster Clinic, Al Barsha",
      "slug": "aster-clinic-al-barsha",
      "address": "Al Bafta Building - Al Barsha Rd, Al Barsha",
      "area": "Al Barsha",
      "phone": "+971 4 440 0500",
      "website": "https://www.asterclinic.ae/clinic/aster-clinic-al-barsha/",
      "rating": 4.7,
      "reviewCount": 4557,
      "services": ["General Dentistry", "Internal Medicine", "Pediatrics", "Dermatology", "Orthopedics"],
      "hours": "Mon-Sat: 8:00 AM - 9:00 PM",
      "description": "Multi-specialty clinic in Al Barsha offering dental and medical services under one roof.",
      "lat": 25.1127541,
      "lng": 55.2009557
    },
    {
      "name": "Nagem Dental Diet & Laser Center - Al Barsha",
      "slug": "nagem-dental-laser-center-al-barsha",
      "address": "Al Barsha Business Centre - 17A St, Al Barsha",
      "area": "Al Barsha",
      "phone": "+971 56 664 9375",
      "website": "https://nagemclinics.com/",
      "rating": 4.8,
      "reviewCount": 496,
      "services": ["General Dentistry", "Laser Dentistry", "Diet Consultation", "Teeth Whitening", "Cosmetic Dentistry"],
      "hours": "Mon-Sat: 9:00 AM - 8:00 PM",
      "description": "Integrated dental and wellness center offering laser dentistry and diet services.",
      "lat": 25.1135578,
      "lng": 55.1939773
    },
    {
      "name": "Art of Teeth Dental Clinic",
      "slug": "art-of-teeth-dental-clinic",
      "address": "201, Barsha Business Square, Al Barsha 1, Hadeeq Mohammed Bin Rashid",
      "area": "Al Barsha",
      "phone": "+971 58 593 3422",
      "website": "https://www.artofteeth.ae/",
      "rating": 4.9,
      "reviewCount": 335,
      "services": ["Root Canal", "Dental Implants", "Braces", "Invisalign", "Affordable Dentistry"],
      "hours": "Mon-Sat: 9:00 AM - 10:00 PM",
      "description": "Affordable dental clinic in Al Barsha specializing in root canals, implants, and orthodontics.",
      "lat": 25.1095975,
      "lng": 55.1971349
    },
    {
      "name": "Dr. Joy Dental Clinic, Jumeirah Beach Road",
      "slug": "dr-joy-dental-clinic-jumeirah-beach-road",
      "address": "Villa 17 Jumeirah Beach Rd, Jumeirah",
      "area": "Jumeirah",
      "phone": "+971 800 37569",
      "website": "https://www.drjoydentalclinic.com/our-clinics/jumeirah-beach-road-dental-clinic/",
      "rating": 4.9,
      "reviewCount": 654,
      "services": ["General Dentistry", "Cosmetic Dentistry", "Orthodontics", "Pediatric Dentistry", "Dental Implants"],
      "hours": "Mon-Sat: 9:00 AM - 9:00 PM",
      "description": "Premium dental clinic on Jumeirah Beach Road in a charming villa setting.",
      "lat": 25.2231869,
      "lng": 55.2563778
    },
    {
      "name": "Dr. Michael's Dental Clinic - Micris Branch",
      "slug": "dr-michaels-dental-clinic-micris",
      "address": "Villa 108 Jumeirah Beach Rd, Jumeirah",
      "area": "Jumeirah",
      "phone": "+971 4 330 0441",
      "website": "https://www.drmichaels.com/micris-dental-clinic",
      "rating": 4.8,
      "reviewCount": 480,
      "services": ["General Dentistry", "Cosmetic Dentistry", "Dental Implants", "Orthodontics", "Pediatric Dentistry"],
      "hours": "Mon-Sat: 9:00 AM - 8:00 PM",
      "description": "Established dental clinic in Jumeirah with decades of experience in quality dental care.",
      "lat": 25.1995852,
      "lng": 55.2391097
    },
    {
      "name": "Dr. Michael's Dental Clinic - Jumeirah (Al Wasl Rd)",
      "slug": "dr-michaels-dental-clinic-jumeirah-al-wasl",
      "address": "Villa 414 Al Wasl Rd, Jumeirah",
      "area": "Jumeirah",
      "phone": "+971 4 349 5900",
      "website": "https://www.drmichaels.com/",
      "rating": 4.9,
      "reviewCount": 569,
      "services": ["General Dentistry", "Cosmetic Dentistry", "Dental Implants", "Orthodontics", "Veneers"],
      "hours": "Mon-Sat: 9:00 AM - 6:00 PM",
      "description": "Renowned dental clinic on Al Wasl Road known for excellence in dental care.",
      "lat": 25.2051731,
      "lng": 55.2521752
    },
    {
      "name": "Jumeira Beach Dental Center",
      "slug": "jumeira-beach-dental-center",
      "address": "Villa # 110 Jumeira St, Jumeirah",
      "area": "Jumeirah",
      "phone": "+971 4 349 9433",
      "website": "https://jbdcdubai.com/",
      "rating": 4.9,
      "reviewCount": 64,
      "services": ["General Dentistry", "Cosmetic Dentistry", "Dental Implants", "Teeth Whitening"],
      "hours": "Mon-Sat: 9:00 AM - 6:00 PM",
      "description": "Boutique dental center on Jumeirah Beach offering personalized dental treatments.",
      "lat": 25.2251579,
      "lng": 55.2579265
    },
    {
      "name": "GMCClinics - Jumeirah Dental",
      "slug": "gmc-clinics-jumeirah-dental",
      "address": "Jumeirah Beach Road, Jumeirah",
      "area": "Jumeirah",
      "phone": "+971 4 304 6444",
      "website": "http://www.gmcclinics.com/",
      "rating": 4.5,
      "reviewCount": 123,
      "services": ["General Dentistry", "Orthodontics", "Dental Implants", "Cosmetic Dentistry"],
      "hours": "Mon-Sat: 9:00 AM - 7:00 PM",
      "description": "Part of the GMC healthcare network offering quality dental services in Jumeirah.",
      "lat": 25.231078,
      "lng": 55.263454
    },
    {
      "name": "Leila Hariri Dental & Medical Aesthetics",
      "slug": "leila-hariri-dental-medical-aesthetics",
      "address": "Villa 410 - Al Wasl Rd, Jumeirah",
      "area": "Jumeirah",
      "phone": "+971 4 349 5432",
      "website": "https://lhdm.ae/",
      "rating": 5.0,
      "reviewCount": 420,
      "services": ["Cosmetic Dentistry", "Medical Aesthetics", "Veneers", "Teeth Whitening", "Smile Design"],
      "hours": "Mon-Sat: 9:00 AM - 6:00 PM",
      "description": "Boutique dental and aesthetics clinic combining dental excellence with beauty treatments.",
      "lat": 25.2062921,
      "lng": 55.2528738
    },
    {
      "name": "Drs. Nicolas & Asp Dental Centers - Jumeirah",
      "slug": "nicolas-asp-dental-centers-jumeirah",
      "address": "8 Al Khawahir Street - Beach Road, Jumeirah",
      "area": "Jumeirah",
      "phone": "+971 4 394 7777",
      "website": "http://www.nicolasandasp.com/",
      "rating": 4.7,
      "reviewCount": 830,
      "services": ["General Dentistry", "Orthodontics", "Dental Implants", "Cosmetic Dentistry", "Pediatric Dentistry"],
      "hours": "Mon-Sat: 8:00 AM - 8:00 PM",
      "description": "Established dental center in Jumeirah with over 40 years of experience in Dubai.",
      "lat": 25.191605,
      "lng": 55.2324159
    },
    {
      "name": "National Medical Center - Satwa",
      "slug": "national-medical-center-satwa",
      "address": "Flat No 107, Sedar Showroom Building Al Diyafah Rd - 32 Al Diyafah Street, near Jumeira Rotana hotel",
      "area": "Satwa",
      "phone": "+971 4 345 3906",
      "website": "https://nationalmed.ae/",
      "rating": 4.8,
      "reviewCount": 616,
      "services": ["General Dentistry", "Dental Implants", "Root Canal", "Teeth Whitening", "Orthodontics"],
      "hours": "Mon-Sat: 9:00 AM - 10:00 PM",
      "description": "Comprehensive dental clinic in Satwa serving the community with affordable dental care.",
      "lat": 25.2376109,
      "lng": 55.2743924
    },
    {
      "name": "Smile On Dental Clinic",
      "slug": "smile-on-dental-clinic",
      "address": "AMKM Investment Building, Unit 213, 2nd Floor, Jumeirah",
      "area": "Jumeirah",
      "phone": "+971 55 896 1826",
      "website": "https://smileondc.com/",
      "rating": 5.0,
      "reviewCount": 299,
      "services": ["General Dentistry", "Aligners", "Orthodontics", "Cosmetic Dentistry", "Teeth Whitening"],
      "hours": "Mon-Sat: 9:00 AM - 9:00 PM",
      "description": "Expert orthodontic care with aligners starting from AED 7000 in Jumeirah.",
      "lat": 25.237058,
      "lng": 55.275367
    },
    {
      "name": "Crossroads Dental Clinic - Deira",
      "slug": "crossroads-dental-clinic-deira",
      "address": "505, Block A, Centurion Star Towers - near Deira City Centre, Deira",
      "area": "Deira",
      "phone": "+971 4 343 5424",
      "website": "https://crossroadsdentalclinic.com/",
      "rating": 4.9,
      "reviewCount": 1071,
      "services": ["General Dentistry", "Cosmetic Dentistry", "Dental Implants", "Root Canal", "Orthodontics"],
      "hours": "Mon-Sat: 9:00 AM - 9:00 PM",
      "description": "Popular dental clinic near Deira City Centre with comprehensive dental services.",
      "lat": 25.2545424,
      "lng": 55.3286376
    },
    {
      "name": "Al Abrah Clinic - Port Saeed, Deira",
      "slug": "al-abrah-clinic-deira",
      "address": "Centurion Star - 804-A - 34 Street - opposite Deira City Center, Deira",
      "area": "Deira",
      "phone": "+971 4 295 0000",
      "website": null,
      "rating": 4.9,
      "reviewCount": 204,
      "services": ["General Dentistry", "Dental Implants", "Root Canal", "Teeth Cleaning", "Extractions"],
      "hours": "Mon-Sat: 9:00 AM - 9:00 PM",
      "description": "Trusted dental clinic in Port Saeed area serving Deira community.",
      "lat": 25.2551254,
      "lng": 55.328919
    },
    {
      "name": "Pearly White Dental Clinic",
      "slug": "pearly-white-dental-clinic",
      "address": "Centurion Star Tower, Deira",
      "area": "Deira",
      "phone": "+971 4 295 5000",
      "website": null,
      "rating": 4.9,
      "reviewCount": 583,
      "services": ["General Dentistry", "Teeth Whitening", "Cosmetic Dentistry", "Dental Implants"],
      "hours": "Mon-Sat: 9:00 AM - 6:30 PM",
      "description": "Dental clinic in Deira specializing in teeth whitening and cosmetic procedures.",
      "lat": 25.2544651,
      "lng": 55.328762
    },
    {
      "name": "iSmile Dental Clinic LLC",
      "slug": "ismile-dental-clinic",
      "address": "GCC Exchange, Nobel Showroom building - opposite Jovial Center, Deira",
      "area": "Deira",
      "phone": "+971 4 269 5000",
      "website": null,
      "rating": 4.9,
      "reviewCount": 1042,
      "services": ["General Dentistry", "Dental Implants", "Orthodontics", "Cosmetic Dentistry", "Root Canal"],
      "hours": "Mon-Sat: 9:00 AM - 10:30 PM",
      "description": "Popular dental clinic in Deira with extended hours and comprehensive services.",
      "lat": 25.2685756,
      "lng": 55.3037052
    },
    {
      "name": "Noor Al Inaya Dental Clinic",
      "slug": "noor-al-inaya-dental-clinic",
      "address": "Dubai Pearl Building Office # 605 6th Floor 18th street - Near Baniyas Metro Station, Deira",
      "area": "Deira",
      "phone": "+971 4 269 0000",
      "website": null,
      "rating": 5.0,
      "reviewCount": 583,
      "services": ["General Dentistry", "Dental Implants", "Root Canal", "Teeth Whitening", "Orthodontics"],
      "hours": "Mon-Sat: 9:00 AM - 10:30 PM",
      "description": "Highly-rated dental clinic near Baniyas Metro with excellent patient reviews.",
      "lat": 25.2678775,
      "lng": 55.3054729
    },
    {
      "name": "Achira Clinics - Deira",
      "slug": "achira-clinics-deira",
      "address": "IBIS Building - Rigga Business Center - Unit No. 5002 - Al Rigga Rd, Deira",
      "area": "Deira",
      "phone": "+971 4 262 5000",
      "website": null,
      "rating": 4.9,
      "reviewCount": 1562,
      "services": ["General Dentistry", "Dental Implants", "Orthodontics", "Cosmetic Dentistry", "Root Canal"],
      "hours": "Mon-Sat: 9:00 AM - 8:00 PM",
      "description": "Popular dental clinic on Al Rigga Road with over 1500 positive reviews.",
      "lat": 25.2652355,
      "lng": 55.3209969
    },
    {
      "name": "Dream Smile Dental Clinic",
      "slug": "dream-smile-dental-clinic",
      "address": "Baniyas Square, Al Maktoum Hospital Road, Behind White Fort Hotel, Lily Centre - Office Number 106, Deira",
      "area": "Deira",
      "phone": "+971 4 226 0000",
      "website": null,
      "rating": 4.9,
      "reviewCount": 443,
      "services": ["Teeth Whitening", "Gold Teeth", "Silver Teeth", "Zirconia Bridges", "Cosmetic Dentistry"],
      "hours": "Mon-Sat: 9:00 AM - 10:30 PM",
      "description": "Dental clinic specializing in teeth whitening, gold/silver teeth, and zirconia bridges.",
      "lat": 25.2696022,
      "lng": 55.3055754
    },
    {
      "name": "Smile Story Medical Center",
      "slug": "smile-story-medical-center",
      "address": "502, 5th floor, Saud Al Qasimi Bldg - Salah Al Din St - opp. Reef Mall, Deira",
      "area": "Deira",
      "phone": "+971 4 265 0000",
      "website": null,
      "rating": 4.9,
      "reviewCount": 489,
      "services": ["General Dentistry", "Dental Implants", "Cosmetic Dentistry", "Root Canal", "Teeth Whitening"],
      "hours": "Mon-Sat: 9:00 AM - 9:00 PM",
      "description": "Modern dental center opposite Reef Mall offering comprehensive dental treatments.",
      "lat": 25.2705475,
      "lng": 55.3221309
    },
    {
      "name": "Dr. Paul's Dental Clinic Dubai",
      "slug": "dr-pauls-dental-clinic",
      "address": "Al Nasr Plaza - Office 101, 1st Floor, Oud Metha",
      "area": "Bur Dubai",
      "phone": "+971 4 357 5783",
      "website": "https://www.drpaulsdentalclinic.com/",
      "rating": 4.8,
      "reviewCount": 484,
      "services": ["Pediatric Dentistry", "Dental Fillings", "Root Canal", "Braces", "Invisalign"],
      "hours": "Mon-Sat: 9:00 AM - 9:00 PM",
      "description": "Trusted dental clinic with expertise in pediatric dentistry and orthodontics.",
      "lat": 25.2436943,
      "lng": 55.3134346
    },
    {
      "name": "Go Dental Clinic, Bur Dubai",
      "slug": "go-dental-clinic-bur-dubai",
      "address": "Unit M04 & M05, Mezzanine floor, Manazil Al Raffa 01, Bur Dubai",
      "area": "Bur Dubai",
      "phone": "+971 800 777000",
      "website": "https://www.godentalclinic.com/",
      "rating": 4.9,
      "reviewCount": 2618,
      "services": ["General Dentistry", "Dental Implants", "Invisalign", "Veneers", "Cosmetic Dentistry"],
      "hours": "Mon-Sat: 9:00 AM - 9:00 PM",
      "description": "Highly-rated dental clinic in Bur Dubai with over 2600 positive reviews.",
      "lat": 25.2554116,
      "lng": 55.2937406
    },
    {
      "name": "Faces & Braces Dental Clinic",
      "slug": "faces-braces-dental-clinic",
      "address": "Khalid Al Attar Building Burjuman Metro Station Exit1 Suite 306, Bur Dubai",
      "area": "Bur Dubai",
      "phone": "+971 56 708 7777",
      "website": "https://facesandbraces.ae/",
      "rating": 4.9,
      "reviewCount": 522,
      "services": ["Braces", "Orthodontics", "Invisalign", "Cosmetic Dentistry", "Smile Design"],
      "hours": "Mon-Sat: 9:00 AM - 9:00 PM",
      "description": "Braces specialists near Burjuman Metro offering expert orthodontic treatments.",
      "lat": 25.2550852,
      "lng": 55.3049837
    },
    {
      "name": "Dubai Sky Clinic (by Trio Dental Center)",
      "slug": "dubai-sky-clinic",
      "address": "Burjuman Business Tower - Unit 2109, Level 21, Bur Dubai",
      "area": "Bur Dubai",
      "phone": "+971 4 355 8808",
      "website": "http://www.dubaiskyclinic.com/",
      "rating": 4.9,
      "reviewCount": 435,
      "services": ["General Dentistry", "Cosmetic Dentistry", "Dental Implants", "Orthodontics"],
      "hours": "Mon-Sat: 9:00 AM - 8:00 PM",
      "description": "Sky-high dental clinic in Burjuman Business Tower with stunning city views.",
      "lat": 25.2516512,
      "lng": 55.3012446
    },
    {
      "name": "Queens Medical Center Burjuman",
      "slug": "queens-medical-center-burjuman",
      "address": "Shop no 4, The Business Centre Building, Ground Floor - Khalid Bin Al Waleed Rd - next to Mashreq Bank, Bur Dubai",
      "area": "Bur Dubai",
      "phone": "+971 600 578336",
      "website": "https://www.queensmedicalcenter.ae/",
      "rating": 4.9,
      "reviewCount": 1001,
      "services": ["General Dentistry", "Dental Implants", "Orthodontics", "Cosmetic Dentistry", "Root Canal"],
      "hours": "Mon-Sat: 9:00 AM - 10:00 PM",
      "description": "Popular medical and dental center near Burjuman with excellent patient care.",
      "lat": 25.2557152,
      "lng": 55.3033382
    },
    {
      "name": "Dr. Joy Dental Clinic, BurJuman Mall",
      "slug": "dr-joy-dental-clinic-burjuman",
      "address": "BurJuman, Business Tower - Office 1003 10th Floor, Bur Dubai",
      "area": "Bur Dubai",
      "phone": "+971 800 37569",
      "website": "https://www.drjoydentalclinic.com/our-clinics/burjuman-clinic/",
      "rating": 4.9,
      "reviewCount": 2175,
      "services": ["General Dentistry", "Cosmetic Dentistry", "Orthodontics", "Pediatric Dentistry", "Dental Implants"],
      "hours": "Mon-Sat: 9:00 AM - 9:00 PM",
      "description": "Premium Dr. Joy dental clinic in Burjuman Business Tower with over 2000 reviews.",
      "lat": 25.2515135,
      "lng": 55.3013111
    },
    {
      "name": "City Smile Dental Clinic",
      "slug": "city-smile-dental-clinic",
      "address": "The Atrium Building - Office #201 - Khalid Bin Al Waleed Rd, Bur Dubai",
      "area": "Bur Dubai",
      "phone": "+971 4 340 8949",
      "website": "http://www.c-sclinic.com/",
      "rating": 4.8,
      "reviewCount": 189,
      "services": ["General Dentistry", "Cosmetic Dentistry", "Teeth Whitening", "Root Canal"],
      "hours": "Mon-Sat: 9:00 AM - 8:00 PM",
      "description": "Friendly dental clinic on Khalid Bin Al Waleed Road offering quality dental care.",
      "lat": 25.2567146,
      "lng": 55.2989212
    },
    {
      "name": "Health Family Clinic",
      "slug": "health-family-clinic",
      "address": "16 - 14 2A St, Bur Dubai",
      "area": "Bur Dubai",
      "phone": "+971 4 396 0034",
      "website": "http://www.healthfamilyclinic.ae/",
      "rating": 4.9,
      "reviewCount": 1691,
      "services": ["General Dentistry", "Dental Implants", "Orthodontics", "Pediatric Dentistry", "Root Canal"],
      "hours": "Mon-Sat: 9:00 AM - 7:00 PM",
      "description": "Family-oriented dental clinic in Bur Dubai with nearly 1700 positive reviews.",
      "lat": 25.2522343,
      "lng": 55.3035725
    },
    {
      "name": "Dental Studio - Marina Gate",
      "slug": "dental-studio-marina-gate",
      "address": "Marina Gate, Dubai Marina",
      "area": "Dubai Marina",
      "phone": "+971 4 399 8440",
      "website": "https://www.thedentalstudio.ae/",
      "rating": 4.9,
      "reviewCount": 177,
      "services": ["General Dentistry", "Cosmetic Dentistry", "Teeth Whitening", "Veneers", "Dental Crowns"],
      "hours": "Mon-Sat: 9:00 AM - 7:00 PM",
      "description": "Award-winning dental studio in Marina Gate offering premium dental treatments.",
      "lat": 25.0780000,
      "lng": 55.1350000
    },
    {
      "name": "Factor Smile Dental Clinic",
      "slug": "factor-smile-dental-clinic",
      "address": "City Walk Building 11A, Dubai",
      "area": "Al Wasl",
      "phone": "+971 54 398 4003",
      "website": "https://factorsmile.ae/",
      "rating": 4.9,
      "reviewCount": 346,
      "services": ["General Dentistry", "Cosmetic Dentistry", "Dental Implants", "Veneers", "Teeth Whitening"],
      "hours": "Mon-Sat: 9:00 AM - 9:00 PM",
      "description": "Maintaining the health and beauty of your smile with exceptional dental care.",
      "lat": 25.204158,
      "lng": 55.262035
    }
  ],
  "metadata": {
    "totalClinics": 51,
    "lastUpdated": "2025-02-08",
    "areas": ["Dubai Marina", "JBR", "JLT", "Business Bay", "Downtown Dubai", "Al Barsha", "Jumeirah", "Satwa", "Deira", "Bur Dubai", "Al Wasl"],
    "source": "Google Maps"
  }
}
